{
  "type": "FeatureCollection",
  "features": [
    {
      "type": "Feature",
      "geometry": {
        "type": "Point",
        "coordinates": [-74.006, 40.7128]
      },
      "properties": {
        "name": "New York",
        "description": "The largest city in the United States."
      }
    },
    {
      "type": "Feature",
      "geometry": {
        "type": "Point",
        "coordinates": [139.6917, 35.6895]
      },
      "properties": {
        "name": "Tokyo",
        "description": "The capital city of Japan, known for its skyscrapers and technology."
      }
    },
    {
      "type": "Feature",
      "geometry": {
        "type": "Point",
        "coordinates": [2.3522, 48.8566]
      },
      "properties": {
        "name": "Paris",
        "description": "The capital of France, famous for its art, fashion, and the Eiffel Tower."
      }
    },
    {
      "type": "Feature",
      "geometry": {
        "type": "Point",
        "coordinates": [151.2093, -33.8688]
      },
      "properties": {
        "name": "Sydney",
        "description": "A major city in Australia, known for its Sydney Opera House."
      }
    },
    {
      "type": "Feature",
      "geometry": {
        "type": "Point",
        "coordinates": [103.8198, 1.3521]
      },
      "properties": {
        "name": "Singapore",
        "description": "A global financial hub in Southeast Asia."
      }
    },
    {
      "type": "Feature",
      "geometry": {
        "type": "Point",
        "coordinates": [106.816666, -6.2]
      },
      "properties": {
        "name": "Jakarta",
        "description": "The capital city of Indonesia, known for its busy streets and cultural diversity."
      }
    },
    {
      "type": "Feature",
      "geometry": {
        "type": "Point",
        "coordinates": [31.2357, 30.0444]
      },
      "properties": {
        "name": "Cairo",
        "description": "The capital of Egypt, known for its ancient history and the pyramids."
      }
    },
    {
      "type": "Feature",
      "geometry": {
        "type": "Point",
        "coordinates": [13.405, 52.52]
      },
      "properties": {
        "name": "Berlin",
        "description": "The capital of Germany, known for its history and cultural sites."
      }
    }
  ]
}
